[
  {
    "lat": 53.6008917,
    "lng": 24.9576159,
    "address": "Желудок: дворец Святополк-Четвертинских",
    "categories": [
      33
    ],
    "sourceImage": "https://metravel.by/address-image/15600/conversions/fe1857f8d298458096fee92a00876d2a.webp"
  },
  {
    "lat": 53.5997711,
    "lng": 24.9562211,
    "address": "Желудок: склеп-усыпальница в усадебном парке",
    "categories": [
      89
    ],
    "sourceImage": "https://metravel.by/address-image/15601/conversions/db981e7dac4f45cb840ae19a5722ed22.webp"
  },
  {
    "lat": 54.1309611,
    "lng": 25.7666988,
    "address": "Жемыславль: дворец Умястовских",
    "categories": [
      33,
      116
    ],
    "sourceImage": "https://metravel.by/address-image/15515/conversions/479f6831a1844bd4a4cc2fff59f4f22c.webp"
  },
  {
    "lat": 53.9934664,
    "lng": 25.1935472,
    "address": "Жирмуны: руины усадьбы Радзивиллов",
    "categories": [
      116
    ],
    "sourceImage": "https://metravel.by/address-image/15497/conversions/a08a821296d844ddbe0b557c60d1fee4.webp"
  },
  {
    "lat": 53.68337,
    "lng": 24.9350467,
    "address": "Большое Можейково: усадьба Ходкевичей",
    "categories": [
      136
    ],
    "sourceImage": "https://metravel.by/address-image/15604/conversions/dcdeaaf23a2742029672708318367337.webp"
  },
  {
    "lat": 53.6269483,
    "lng": 25.0257472,
    "address": "Дикушки: усадьба Гробовских",
    "categories": [
      136,
      116
    ],
    "sourceImage": "https://metravel.by/address-image/15607/conversions/3c26918a64df48f5b016e0ac59366ecb.webp"
  },
  {
    "lat": 53.6681422,
    "lng": 24.8849849,
    "address": "Ищелно: усадебно-парковый комплекс Ласковичей",
    "categories": [
      136,
      116
    ],
    "sourceImage": "https://metravel.by/address-image/15608/conversions/809ed95a2ab54351be5c6ee01e612f0a.webp"
  },
  {
    "lat": 53.750227,
    "lng": 28.0175765,
    "address": "Смиловичи: дворец Монюшко-Ваньковичей",
    "categories": [
      33,
      118
    ],
    "sourceImage": "https://metravel.by/address-image/15508/conversions/4282c31c031548c1893dcf02a522690d.webp"
  },
  {
    "lat": 54.2053365,
    "lng": 27.8447456,
    "address": "Логойск: руины дворца Тышкевичей",
    "categories": [
      118
    ],
    "sourceImage": "https://metravel.by/gallery/2791/conversions/i6hol6L2bwkfTs9ofHQvf0mZyC2cZHt1QkDCOD7I-detail_hd.jpg"
  },
  {
    "lat": 54.028167,
    "lng": 27.4348301,
    "address": "Сёмково: дворец Адама Хмары",
    "categories": [
      33
    ],
    "sourceImage": "https://metravel.by/address-image/15498/conversions/4af2e9b54d954ca58b940715a68a7e96.webp"
  },
  {
    "lat": 53.9762277,
    "lng": 26.6925008,
    "address": "Под Ивенцом: руины усадьбы Тышкевичей",
    "categories": [
      116
    ],
    "sourceImage": "https://metravel.by/address-image/15511/conversions/ccf55a329c224e10856ba5bf6c7f90d3.webp"
  },
  {
    "lat": 53.9767261,
    "lng": 26.6900868,
    "address": "Под Ивенцом: заброшенный санаторий «Лесное»",
    "categories": [
      114
    ],
    "sourceImage": "https://metravel.by/address-image/15512/conversions/1b636ec8c7e847b0be9cc14fdf94af58.webp"
  },
  {
    "lat": 53.7435666,
    "lng": 27.1181567,
    "address": "Большие Новосёлки: усадебный дом Костровицких",
    "categories": [
      136,
      116
    ],
    "sourceImage": "https://metravel.by/address-image/6556/conversions/RcxXnHvhjOCHpPMXKkMjrs6WKJvVrxnlGa2nWcbb-thumb_400_wp.webp"
  },
  {
    "lat": 53.4434342,
    "lng": 27.1541197,
    "address": "Кухтичи: усадьба Завишей",
    "categories": [
      136
    ],
    "sourceImage": "https://metravel.by/address-image/15510/conversions/8e7a226c12ef472c852d3fd3e015d179.webp"
  },
  {
    "lat": 53.0245595,
    "lng": 26.3401895,
    "address": "Грушевка: усадьба Рейтанов",
    "categories": [
      136
    ],
    "sourceImage": "https://metravel.by/address-image/15516/conversions/da89db80490f4b41901a35d2b969c836.webp"
  },
  {
    "lat": 53.0251525,
    "lng": 26.323284,
    "address": "Грушевка: часовня-усыпальница Рейтанов",
    "categories": [
      141
    ],
    "sourceImage": "https://metravel.by/address-image/15517/conversions/9b5f72bf21824a74919aea7336e424e6.webp"
  },
  {
    "lat": 52.9170306,
    "lng": 26.4114056,
    "address": "Совейки: дворец Новицких",
    "categories": [
      33,
      136
    ],
    "sourceImage": "https://metravel.by/address-image/15057/conversions/4cd326b470a94f6690c7ead794bbf320.webp"
  },
  {
    "lat": 53.0274504,
    "lng": 25.8163776,
    "address": "Павлиново: дворец Бохвицей (1906)",
    "categories": [
      33,
      116
    ],
    "sourceImage": "https://metravel.by/address-image/3836/conversions/548a066c9f5f439b88e15cdd53b738f7.JPG"
  },
  {
    "lat": 53.0307502,
    "lng": 25.9607062,
    "address": "Ястрембель: усадебный дом Котлубаев (1897)",
    "categories": [
      136,
      116
    ],
    "sourceImage": "https://metravel.by/address-image/3841/conversions/e6adc04ef0994d64bc3f091a618cf043.JPG"
  },
  {
    "lat": 52.9614806,
    "lng": 26.5437361,
    "address": "Туча: усадьба Еленских",
    "categories": [
      136
    ],
    "sourceImage": "https://metravel.by/address-image/15054/conversions/1cd126febc8044f88d0fb042b639c437.webp"
  },
  {
    "lat": 52.9272806,
    "lng": 26.5607694,
    "address": "Карацк: усадьба Черноцких",
    "categories": [
      116
    ],
    "sourceImage": "https://metravel.by/address-image/15055/conversions/9ee6be067a1d4ccf9146b08a0f863c2e.webp"
  },
  {
    "lat": 52.8877,
    "lng": 26.5508167,
    "address": "Голынка: руины усадьбы Вендорфов",
    "categories": [
      116
    ],
    "sourceImage": "https://metravel.by/address-image/15058/conversions/62726d9fe4344521b148702f055dc890.webp"
  },
  {
    "lat": 52.3677204,
    "lng": 23.3672204,
    "address": "Высокое: дворец Сапег-Потоцких",
    "categories": [
      33,
      116
    ],
    "sourceImage": "https://metravel.by/address-image/15503/conversions/2f8c14e923da418e89e9f1565987d74f.webp"
  },
  {
    "lat": 55.3842417,
    "lng": 26.5731361,
    "address": "Видзы-Ловчинские: усадьба Вавжецких",
    "categories": [
      116
    ],
    "sourceImage": "https://metravel.by/address-image/15047/conversions/8bb5eb4fd934440c8bb2027916b5465b.webp"
  },
  {
    "lat": 51.8044553,
    "lng": 29.5012715,
    "address": "Наровля: дворец Горваттов",
    "categories": [
      33,
      118
    ],
    "sourceImage": "https://metravel.by/address-image/15520/conversions/2c41bcdd59f84e58af7d33c581525d92.webp"
  }
]