[
  {
    "lat": 52.0871481,
    "lng": 23.6547217,
    "country": 3,
    "address": "Брестская крепость (Цитадель)",
    "categories": [
      39
    ]
  },
  {
    "lat": 52.0799979,
    "lng": 23.6546238,
    "country": 3,
    "address": "Археологический музей «Берестье»",
    "categories": [
      76
    ]
  },
  {
    "lat": 52.0856602,
    "lng": 23.6721882,
    "country": 3,
    "address": "Брестский музей железнодорожной техники (музей паровозов)",
    "categories": [
      76
    ]
  },
  {
    "lat": 52.0895284,
    "lng": 23.6946244,
    "country": 3,
    "address": "Улица Советская — пешеходная, фонарщик и памятник Тысячелетия",
    "categories": [
      39
    ]
  },
  {
    "lat": 52.0854829,
    "lng": 23.6901394,
    "country": 3,
    "address": "Свято-Симеоновский кафедральный собор",
    "categories": [
      39
    ]
  },
  {
    "lat": 52.091635,
    "lng": 23.686436,
    "country": 3,
    "address": "Аллея кованых фонарей на улице Гоголя",
    "categories": [
      39
    ]
  },
  {
    "lat": 52.0961,
    "lng": 23.6797,
    "country": 3,
    "address": "Парк культуры и отдыха (набережная Мухавца)",
    "categories": [
      90
    ]
  },
  {
    "lat": 52.0906431,
    "lng": 23.6860781,
    "country": 3,
    "address": "Брестский академический театр драмы",
    "categories": [
      85
    ]
  },
  {
    "lat": 52.10001,
    "lng": 23.681038,
    "country": 3,
    "address": "Железнодорожный вокзал Брест-Центральный",
    "categories": [
      39
    ]
  }
]